{
    "IJmond": {
        "name": "IJmond",
        "lon": 4.518,
        "lat": 52.465,
        "alt": 0.0,
        "STN": "209",
        "X": 95931.093433345,
        "Y": 497826.96719725226,
        "Z": 0.0
    },
    "ValkenburgZh": {
        "name": "ValkenburgZh",
        "lon": 4.43,
        "lat": 52.171,
        "alt": -0.2,
        "STN": "210",
        "X": 89519.11346407089,
        "Y": 465192.84233140404,
        "Z": -0.2
    },
    "Voorschoten": {
        "name": "Voorschoten",
        "lon": 4.437,
        "lat": 52.141,
        "alt": -1.1,
        "STN": "215",
        "X": 89954.24818105088,
        "Y": 461848.9366045671,
        "Z": -1.1
    },
    "IJmuiden": {
        "name": "IJmuiden",
        "lon": 4.555,
        "lat": 52.463,
        "alt": 4.4,
        "STN": "225",
        "X": 98442.88140817755,
        "Y": 497574.90517506644,
        "Z": 4.4
    },
    "DeKooy": {
        "name": "DeKooy",
        "lon": 4.781,
        "lat": 52.928,
        "alt": 1.2,
        "STN": "235",
        "X": 114235.45147115004,
        "Y": 549163.1251914556,
        "Z": 1.2
    },
    "Schiphol": {
        "name": "Schiphol",
        "lon": 4.79,
        "lat": 52.318,
        "alt": -3.3,
        "STN": "240",
        "X": 114280.3459602095,
        "Y": 481284.2071902523,
        "Z": -3.3
    },
    "Vlieland": {
        "name": "Vlieland",
        "lon": 4.921,
        "lat": 53.241,
        "alt": 10.8,
        "STN": "242",
        "X": 123874.83750250352,
        "Y": 583924.9767709821,
        "Z": 10.8
    },
    "Wijdenes": {
        "name": "Wijdenes",
        "lon": 5.174,
        "lat": 52.634,
        "alt": 0.8,
        "STN": "248",
        "X": 140566.29430495645,
        "Y": 516298.26080261456,
        "Z": 0.8
    },
    "Berkhout": {
        "name": "Berkhout",
        "lon": 4.979,
        "lat": 52.644,
        "alt": -2.4,
        "STN": "249",
        "X": 127371.41512666266,
        "Y": 517467.6485436297,
        "Z": -2.4
    },
    "HoornTerschelling": {
        "name": "HoornTerschelling",
        "lon": 5.346,
        "lat": 53.392,
        "alt": 0.7,
        "STN": "251",
        "X": 152258.4461636239,
        "Y": 600630.4349474516,
        "Z": 0.7
    },
    "WijkaanZee": {
        "name": "WijkaanZee",
        "lon": 4.603,
        "lat": 52.506,
        "alt": 8.5,
        "STN": "257",
        "X": 101756.71505533597,
        "Y": 502322.80483447673,
        "Z": 8.5
    },
    "Houtribdijk": {
        "name": "Houtribdijk",
        "lon": 5.401,
        "lat": 52.649,
        "alt": 7.3,
        "STN": "258",
        "X": 155933.56143313224,
        "Y": 517946.1824305308,
        "Z": 7.3
    },
    "DeBilt": {
        "name": "DeBilt",
        "lon": 5.18,
        "lat": 52.1,
        "alt": 1.9,
        "STN": "260",
        "X": 140802.69756360428,
        "Y": 456881.7714955277,
        "Z": 1.9
    },
    "Soesterberg": {
        "name": "Soesterberg",
        "lon": 5.274,
        "lat": 52.13,
        "alt": 13.9,
        "STN": "265",
        "X": 147248.64963213712,
        "Y": 460205.3553571091,
        "Z": 13.9
    },
    "Stavoren": {
        "name": "Stavoren",
        "lon": 5.384,
        "lat": 52.898,
        "alt": -1.3,
        "STN": "267",
        "X": 154784.24164376254,
        "Y": 545653.648154086,
        "Z": -1.3
    },
    "Lelystad": {
        "name": "Lelystad",
        "lon": 5.52,
        "lat": 52.458,
        "alt": -3.7,
        "STN": "269",
        "X": 164026.00734818866,
        "Y": 496701.96147179976,
        "Z": -3.7
    },
    "Leeuwarden": {
        "name": "Leeuwarden",
        "lon": 5.752,
        "lat": 53.224,
        "alt": 1.2,
        "STN": "270",
        "X": 179364.06632110506,
        "Y": 581994.1253899828,
        "Z": 1.2
    },
    "Marknesse": {
        "name": "Marknesse",
        "lon": 5.888,
        "lat": 52.703,
        "alt": -3.3,
        "STN": "273",
        "X": 188849.76174235396,
        "Y": 524072.1381718632,
        "Z": -3.3
    },
    "Deelen": {
        "name": "Deelen",
        "lon": 5.873,
        "lat": 52.056,
        "alt": 48.2,
        "STN": "275",
        "X": 188318.79075868436,
        "Y": 452077.68963571027,
        "Z": 48.2
    },
    "Lauwersoog": {
        "name": "Lauwersoog",
        "lon": 6.2,
        "lat": 53.413,
        "alt": 2.9,
        "STN": "277",
        "X": 209047.27058330286,
        "Y": 603272.335235052,
        "Z": 2.9
    },
    "Heino": {
        "name": "Heino",
        "lon": 6.259,
        "lat": 52.435,
        "alt": 3.6,
        "STN": "278",
        "X": 214285.15091157693,
        "Y": 494491.5238856772,
        "Z": 3.6
    },
    "Hoogeveen": {
        "name": "Hoogeveen",
        "lon": 6.574,
        "lat": 52.75,
        "alt": 15.8,
        "STN": "279",
        "X": 235129.9864781872,
        "Y": 529842.8776996406,
        "Z": 15.8
    },
    "Eelde": {
        "name": "Eelde",
        "lon": 6.585,
        "lat": 53.125,
        "alt": 5.2,
        "STN": "280",
        "X": 235179.97007018456,
        "Y": 571581.2231981044,
        "Z": 5.2
    },
    "Hupsel": {
        "name": "Hupsel",
        "lon": 6.657,
        "lat": 52.069,
        "alt": 29.1,
        "STN": "283",
        "X": 242062.1564910458,
        "Y": 454174.13306507206,
        "Z": 29.1
    },
    "Huibertgat": {
        "name": "Huibertgat",
        "lon": 6.399,
        "lat": 53.575,
        "alt": 0.0,
        "STN": "285",
        "X": 222025.617372105,
        "Y": 621469.6201671187,
        "Z": 0.0
    },
    "NieuwBeerta": {
        "name": "NieuwBeerta",
        "lon": 7.15,
        "lat": 53.196,
        "alt": -0.2,
        "STN": "286",
        "X": 272803.15050124796,
        "Y": 580257.8167607762,
        "Z": -0.2
    },
    "Twenthe": {
        "name": "Twenthe",
        "lon": 6.891,
        "lat": 52.274,
        "alt": 34.8,
        "STN": "290",
        "X": 257631.77844409097,
        "Y": 477285.68626925506,
        "Z": 34.8
    },
    "Cadzand": {
        "name": "Cadzand",
        "lon": 3.379,
        "lat": 51.381,
        "alt": 0.0,
        "STN": "308",
        "X": 15204.913169225387,
        "Y": 378794.06751899014,
        "Z": 0.0
    },
    "Vlissingen": {
        "name": "Vlissingen",
        "lon": 3.596,
        "lat": 51.442,
        "alt": 8.0,
        "STN": "310",
        "X": 30475.202405982665,
        "Y": 385185.512857629,
        "Z": 8.0
    },
    "Hoofdplaat": {
        "name": "Hoofdplaat",
        "lon": 3.672,
        "lat": 51.379,
        "alt": 0.0,
        "STN": "311",
        "X": 35593.21776889522,
        "Y": 378050.99033211346,
        "Z": 0.0
    },
    "Oosterschelde": {
        "name": "Oosterschelde",
        "lon": 3.622,
        "lat": 51.768,
        "alt": 0.0,
        "STN": "312",
        "X": 33161.506387629226,
        "Y": 421402.3911734065,
        "Z": 0.0
    },
    "VlaktevanDeRaan": {
        "name": "VlaktevanDeRaan",
        "lon": 3.242,
        "lat": 51.505,
        "alt": 0.0,
        "STN": "313",
        "X": 6075.775561416813,
        "Y": 392856.63421542535,
        "Z": 0.0
    },
    "Hansweert": {
        "name": "Hansweert",
        "lon": 3.998,
        "lat": 51.447,
        "alt": 0.0,
        "STN": "315",
        "X": 58430.28524182568,
        "Y": 385132.1483284156,
        "Z": 0.0
    },
    "Schaar": {
        "name": "Schaar",
        "lon": 3.694,
        "lat": 51.657,
        "alt": 0.0,
        "STN": "316",
        "X": 37843.182266523465,
        "Y": 408937.42539045145,
        "Z": 0.0
    },
    "Westdorpe": {
        "name": "Westdorpe",
        "lon": 3.861,
        "lat": 51.226,
        "alt": 1.7,
        "STN": "319",
        "X": 48393.44633539117,
        "Y": 360739.8987551535,
        "Z": 1.7
    },
    "Wilhelminadorp": {
        "name": "Wilhelminadorp",
        "lon": 3.884,
        "lat": 51.527,
        "alt": 1.4,
        "STN": "323",
        "X": 50689.90913567814,
        "Y": 394188.1480315051,
        "Z": 1.4
    },
    "Stavenisse": {
        "name": "Stavenisse",
        "lon": 4.006,
        "lat": 51.596,
        "alt": 0.0,
        "STN": "324",
        "X": 59300.52685939122,
        "Y": 401696.0347009504,
        "Z": 0.0
    },
    "HoekvanHolland": {
        "name": "HoekvanHolland",
        "lon": 4.122,
        "lat": 51.992,
        "alt": 11.9,
        "STN": "330",
        "X": 68103.53034220003,
        "Y": 445602.26883290964,
        "Z": 11.9
    },
    "Tholen": {
        "name": "Tholen",
        "lon": 4.193,
        "lat": 51.48,
        "alt": 0.0,
        "STN": "331",
        "X": 72044.85907365358,
        "Y": 388562.9503640573,
        "Z": 0.0
    },
    "Woensdrecht": {
        "name": "Woensdrecht",
        "lon": 4.342,
        "lat": 51.449,
        "alt": 19.2,
        "STN": "340",
        "X": 82345.17359185278,
        "Y": 384955.4236763549,
        "Z": 19.2
    },
    "RotterdamGeulhaven": {
        "name": "RotterdamGeulhaven",
        "lon": 4.313,
        "lat": 51.893,
        "alt": 3.5,
        "STN": "343",
        "X": 81058.22539368055,
        "Y": 434377.45888780034,
        "Z": 3.5
    },
    "Rotterdam": {
        "name": "Rotterdam",
        "lon": 4.447,
        "lat": 51.962,
        "alt": -4.3,
        "STN": "344",
        "X": 90380.92096120957,
        "Y": 441925.9109169654,
        "Z": -4.3
    },
    "CabauwMast": {
        "name": "CabauwMast",
        "lon": 4.926,
        "lat": 51.97,
        "alt": -0.7,
        "STN": "348",
        "X": 123307.23288106002,
        "Y": 442498.5025450533,
        "Z": -0.7
    },
    "Gilze-Rijen": {
        "name": "Gilze-Rijen",
        "lon": 4.936,
        "lat": 51.566,
        "alt": 14.9,
        "STN": "350",
        "X": 123715.72551105871,
        "Y": 397548.013806552,
        "Z": 14.9
    },
    "Herwijnen": {
        "name": "Herwijnen",
        "lon": 5.146,
        "lat": 51.859,
        "alt": 0.7,
        "STN": "356",
        "X": 138384.09667411912,
        "Y": 430076.04933944705,
        "Z": 0.7
    },
    "Eindhoven": {
        "name": "Eindhoven",
        "lon": 5.377,
        "lat": 51.451,
        "alt": 22.6,
        "STN": "370",
        "X": 154290.9184795222,
        "Y": 384657.31016766746,
        "Z": 22.6
    },
    "Volkel": {
        "name": "Volkel",
        "lon": 5.707,
        "lat": 51.659,
        "alt": 22.0,
        "STN": "375",
        "X": 177127.99005000386,
        "Y": 407846.336823779,
        "Z": 22.0
    },
    "Ell": {
        "name": "Ell",
        "lon": 5.763,
        "lat": 51.198,
        "alt": 30.0,
        "STN": "377",
        "X": 181267.25444988074,
        "Y": 356578.54363042983,
        "Z": 30.0
    },
    "Maastricht": {
        "name": "Maastricht",
        "lon": 5.762,
        "lat": 50.906,
        "alt": 114.3,
        "STN": "380",
        "X": 181363.98355052367,
        "Y": 324093.5619647858,
        "Z": 114.3
    },
    "Arcen": {
        "name": "Arcen",
        "lon": 6.197,
        "lat": 51.498,
        "alt": 19.5,
        "STN": "391",
        "X": 211231.34266846423,
        "Y": 390198.61134588905,
        "Z": 19.5
    }
}